City_ID,City,Country,Max Temp,Current Description,Lat,Lng,Hotel Name
0,Rikitea,PF,76.71,moderate rain,-23.1203,-134.9692,People ThankYou
1,Hithadhoo,MV,82.4,broken clouds,-0.6,73.0833,Scoop Guest House
2,Punta Arenas,CL,57.31,clear sky,-53.15,-70.9167,Hotel Hain
3,Gat,IL,49.41,clear sky,31.61,34.7642,OlusHome
4,Ushuaia,AR,53.26,scattered clouds,-54.8,-68.3,Albatros Hotel
5,Souillac,MU,76.35,scattered clouds,-20.5167,57.5167,Shanti Maurice Resort & Spa
6,Tura,IN,54.14,clear sky,25.5198,90.2201,Hotel RIKMAN Continental
8,Seydi,TM,33.12,overcast clouds,39.4816,62.9137,Seydi oteli
9,Lompoc,US,54.37,light rain,34.6391,-120.4579,"Holiday Inn Express Lompoc, an IHG Hotel"
10,Severo-Kurilsk,RU,30.52,snow,50.6789,156.125,Kak Doma
11,Bredasdorp,ZA,67.28,overcast clouds,-34.5322,20.0403,Bredasdorp Country Manor
12,Esperance,AU,70.68,scattered clouds,-33.8667,121.9,Hospitality Esperance
13,Sao Joao Da Barra,BR,70.12,clear sky,-21.6403,-41.0511,Pousada Porto De Canoas
14,Albany,US,38.37,light snow,42.6001,-73.9662,
15,Lalmohan,BD,65.14,clear sky,22.3384,90.7419,Sundorbon courier service
16,Hermanus,ZA,68.9,overcast clouds,-34.4187,19.2345,Misty Waves Boutique Hotel
17,Cape Town,ZA,69.12,clear sky,-33.9258,18.4232,Southern Sun Waterfront Cape Town
19,Weligama,LK,70.88,clear sky,5.9667,80.4167,Weligama Bay Resort
21,Bandarbeyla,SO,78.94,overcast clouds,9.4942,50.8122,JABIR HOTEL
22,Ilulissat,GL,26.62,clear sky,69.2167,-51.1,Hotel Arctic
23,Port Alfred,ZA,68.81,light rain,-33.5906,26.891,The Halyards Hotel
24,Vaini,TO,84.36,broken clouds,-21.2,-175.2,Keleti Beach Resort
25,Cidreira,BR,71.82,clear sky,-30.1811,-50.2056,Hotel Castelo
26,Comodoro Rivadavia,AR,60.66,clear sky,-45.8667,-67.5,Austral Hotel
28,Lavumisa,SZ,70.92,overcast clouds,-27.31,31.892,ROADSIDE B&B
29,Upernavik,GL,3.36,overcast clouds,72.7868,-56.1549,Gina's Guesthouse - Upernavik
31,Marawi,PH,72.64,overcast clouds,7.9986,124.2928,Derogongan Residence
33,Inhambane,MZ,74.43,overcast clouds,-23.865,35.3833,Oceano
34,Dalbandin,PK,57.79,overcast clouds,28.8947,64.4101,Gidaan Guest House
35,Mataura,NZ,76.48,clear sky,-46.1927,168.8643,Ellie's Villa
36,Bambous Virieux,MU,76.21,scattered clouds,-20.3428,57.7575,Casa Tia Villa
37,Morant Bay,JM,80.22,scattered clouds,17.8815,-76.4093,Whispering Bamboo Cove Resort
38,Busselton,AU,84.16,scattered clouds,-33.65,115.3333,Observatory Guest House
39,Saint-Augustin,CA,28.09,light snow,51.226,-58.6502,
40,Maraa,BR,75.31,overcast clouds,-1.8333,-65.3667,
41,San Cristobal,VE,69.98,scattered clouds,7.7669,-72.225,Posada Villaven C.A.
42,Ribeira Grande,PT,63.32,overcast clouds,38.5167,-28.7,Quinta da Meia Eira
43,Atuona,PF,78.33,clear sky,-9.8,-139.0333,Villa Enata
44,Fortuna,US,42.33,broken clouds,40.5982,-124.1573,Super 8 by Wyndham Fortuna
45,Troitskoye,RU,14.94,overcast clouds,52.9821,84.6757,
47,Stokmarknes,NO,24.71,few clouds,68.5646,14.9108,Vesterålen Kysthotell
48,Puerto Ayora,EC,70.56,overcast clouds,-0.7393,-90.3518,Finch Bay Galapagos Hotel
49,Bluff,NZ,76.8,few clouds,-46.6,168.3333,Bluff Homestead - Guesthouse & Campervan Park
50,Mar Del Plata,AR,63.09,clear sky,-38.0023,-57.5575,Gran Hotel Mar del Plata
51,Luderitz,,60.85,clear sky,-26.6481,15.1594,LÜDERITZ NEST HOTEL
52,Husavik,IS,26.51,overcast clouds,66.0449,-17.3389,Bjarnabúð
53,Kaitangata,NZ,65.93,clear sky,-46.2817,169.8464,Kaitangata Motor Camp
54,Olafsvik,IS,30.15,overcast clouds,64.8945,-23.7142,Hotel Olafsvik
55,Plettenberg Bay,ZA,65.3,broken clouds,-34.0527,23.3716,Thanda Vista B&B
56,Georgetown,MY,82.33,few clouds,5.4112,100.3354,Cititel Penang
57,Bhim Tal,IN,40.37,overcast clouds,29.35,79.5667,Sattal Forest Resort
58,East London,ZA,69.93,light rain,-33.0153,27.9116,Tu Casa
59,Arraial Do Cabo,BR,72.59,clear sky,-22.9661,-42.0278,Pousada Porto Praia
60,Bengkulu,ID,77.63,overcast clouds,-3.8004,102.2655,Grage Hotel Bengkulu
61,New Norfolk,AU,63.91,clear sky,-42.7826,147.0587,The Shingles Riverside Cottages
62,Aasiaat,GL,11.44,clear sky,68.7098,-52.8699,Hotel Aasiaat Sømandshjem
63,Renigunta,IN,67.98,mist,13.65,79.5167,Appanna Rest House
64,Airai,TL,60.66,overcast clouds,-8.9266,125.4092,Juvinal Martin
65,Aberystwyth,GB,42.66,overcast clouds,52.4155,-4.0829,Aberystwyth Park Lodge Hotel
66,Provideniya,RU,15.82,overcast clouds,64.3833,-173.3,
67,Kropotkin,RU,42.67,overcast clouds,45.4375,40.5756,Hotel Europe Kropotkin
68,Kodiak,US,38.71,clear sky,57.79,-152.4072,Best Western Kodiak Inn And Convention Center
69,Mahebourg,MU,76.24,scattered clouds,-20.4081,57.7,Shandrani Beachcomber Resort & Spa
70,Codrington,AU,60.21,overcast clouds,-38.2667,141.9667,Codrington Gardens Bed And Breakfast
71,Matara,LK,70.79,clear sky,5.9485,80.5353,Amaloh Boutique Resort
73,Voyvozh,RU,5.95,overcast clouds,62.892,54.9635,Gostinitsa Yakor'
74,Catio,GW,75.49,overcast clouds,11.2833,-15.25,Pausada Morabedja
76,Qaanaaq,GL,10.71,overcast clouds,77.484,-69.3632,Qaanaaq Hotel
77,Santa Cruz,BO,74.66,broken clouds,-17.8,-63.1667,Aviador Hotel Boutique
78,San Patricio,US,73.81,clear sky,28.017,-97.5169,"Motel 6 Sinton, TX"
79,Boralday,KZ,28.26,fog,43.3578,76.8594,"Zhetysu, Too Zhetysu"
80,Tucurui,BR,73.8,overcast clouds,-3.7661,-49.6725,BBB Rooms Centro Tucurui PA
81,Aloleng,PH,80.31,overcast clouds,16.1307,119.7824,Steve Walden and Emma Sison-Walden Residence
82,Baherden,TM,34.83,overcast clouds,38.4362,57.4316,
83,Bosaso,SO,72.86,broken clouds,11.2842,49.1816,Red Sea Hotel
85,Ancud,CL,60.42,clear sky,-41.8697,-73.8203,Hotel Arena Gruesa
86,Vallenar,CL,73.67,overcast clouds,-28.5708,-70.7581,Humacao Bed & Breakfast
88,Kudahuvadhoo,MV,81.34,broken clouds,2.6708,72.8944,Niyama Private Islands Maldives
89,Anqing,CN,28.26,overcast clouds,30.5092,117.0506,Hongtian Hotel
90,Ajdabiya,LY,54.34,clear sky,30.7554,20.2263,Almadina Hotel
91,Ugoofaaru,MV,80.13,overcast clouds,5.6667,73.0,Ungoofaaru Inn
92,Hobart,AU,64.26,light rain,-42.8794,147.3294,Mantra on Collins Hobart
94,Karratha,AU,93.61,broken clouds,-20.7377,116.8463,ibis Styles Karratha
95,The Valley,AI,79.11,clear sky,18.217,-63.0578,CeBlue Villas & Beach Resort
96,Hirara,JP,61.07,broken clouds,24.8,125.2833,Hotel Atoll Emerald Miyakojima
97,Touros,BR,83.3,overcast clouds,-5.1989,-35.4608,INN NEW HORIZON
99,Katherine,AU,82.72,light rain,-14.4667,132.2667,Pine Tree Motel
100,Castro,BR,62.17,scattered clouds,-24.7911,-50.0119,CHACARA BAILLY
102,Narsaq,GL,44.82,overcast clouds,60.9167,-46.05,Sleep In Narsaq
103,Galle,LK,72.57,clear sky,6.0367,80.217,Amangalla
105,Tautira,PF,86.02,light rain,-17.7333,-149.15,Pension Oaoa
108,Malanje,AO,63.73,overcast clouds,-9.5402,16.341,Hotel Ginga
110,Chapais,CA,8.38,overcast clouds,49.7834,-74.8492,Hôtel Opémiska
111,Konongo,GH,72.21,clear sky,6.6167,-1.2167,Alice Tee Hotel
112,Yebaishou,CN,5.14,clear sky,41.3975,119.6408,Siji Home
113,Lorengau,PG,85.62,light rain,-2.0226,147.2712,Lorengau Harbourside Hotel
114,Komsomolskiy,UZ,35.02,mist,40.4272,71.7189,Ikathouse
115,Kismayo,SO,79.18,light rain,-0.3582,42.5454,Agan-Hotel
116,Aviemore,GB,36.18,broken clouds,57.1955,-3.8259,Cairngorm Hotel
117,Marshall,US,68.13,overcast clouds,34.3834,-86.3333,Riverview Campground
118,Port Macquarie,AU,83.89,few clouds,-31.4333,152.9167,Rydges Port Macquarie
120,Sudak,UA,47.66,overcast clouds,44.85,34.9667,Solari Beach
121,Kutum,SD,56.53,overcast clouds,14.2,24.6667,Dibbo areaمنطقة دبو
122,Nome,US,32.16,mist,64.5011,-165.4064,Dredge 7 Inn
123,Beloha,MG,68.43,scattered clouds,-25.1667,45.05,
124,Russell,US,67.71,few clouds,32.3502,-85.1999,Macs
125,Coihaique,CL,62.55,overcast clouds,-45.5752,-72.0662,Diego De Almagro Coyhaique
126,Calabozo,VE,81.21,few clouds,8.9242,-67.4293,Hotel Giardini
128,Jamestown,US,45.09,fog,42.097,-79.2353,Hampton Inn & Suites Jamestown
129,Sibolga,ID,79.25,overcast clouds,1.7427,98.7792,Hotel Syariah CN Darussalam
130,La Paz,BO,49.98,fog,-16.5,-68.15,Hotel Sagarnaga
131,Gayny,RU,13.78,light snow,60.3071,54.3241,
132,Fukue,JP,35.96,broken clouds,32.6881,128.8419,Goto Guesthouse Utojuku & SA Car Rental
133,Ono,JP,40.68,scattered clouds,34.85,134.9333,オーラ 小野店
135,Vao,NC,77.74,overcast clouds,-22.6667,167.4833,Hotel Kou-Bugny
137,Alofi,NU,84.09,light rain,-19.0595,-169.9187,Taloa Heights
138,Cascais,PT,59.05,overcast clouds,38.6979,-9.4215,Hotel Vila Galé Cascais
139,Belmonte,BR,72.1,overcast clouds,-15.8631,-38.8828,Pousada Monte Carmelo O Pão
140,Vanimo,PG,80.69,overcast clouds,-2.6741,141.3028,Vahmoneh Lodge Vanimo
141,Ascension,US,72.07,overcast clouds,30.2169,-90.9001,Highland Inn
142,San Quintin,MX,59.14,overcast clouds,30.4833,-115.95,Don Eddie's Landing
143,Maningrida,AU,83.12,moderate rain,-12.0667,134.2667,Dhukurrdji Lodge
144,Ekpoma,NG,70.32,few clouds,6.7421,6.139,His Banner Hotel
145,Teguldet,RU,14.81,overcast clouds,57.3064,88.1667,
146,Templin,DE,22.89,clear sky,53.1186,13.5022,AHORN Seehotel Templin
147,Pocatello,US,33.67,overcast clouds,42.8713,-112.4455,TownePlace Suites by Marriott Pocatello
148,Coueron,FR,52.48,overcast clouds,47.2151,-1.7217,La tremière
149,Luanda,AO,77.0,broken clouds,-8.8368,13.2343,Hotel Fórum
150,Rovaniemi,FI,2.61,clear sky,66.5,25.7167,Arctic City Hotel
152,Petropavlovsk-Kamchatskiy,RU,30.79,light snow,53.0452,158.6483,The Hotel Petropavlovsky
153,Iqaluit,CA,1.13,few clouds,63.7506,-68.5145,Frobisher Inn
154,Vardo,NO,27.12,light snow,70.3705,31.1107,Vardø Hotel AS
157,Kapaa,US,79.12,scattered clouds,22.0752,-159.319,Sheraton Kauai Coconut Beach Resort
159,Hilo,US,78.28,scattered clouds,19.7297,-155.09,Hilo Hawaiian Hotel
160,Sao Filipe,CV,76.51,broken clouds,14.8961,-24.4956,Hotel Xaguate
161,Aviles,ES,54.73,clear sky,43.5547,-5.9248,"Palacio de Avilés, Affiliated by Meliá"
162,Broken Hill,AU,77.18,clear sky,-31.95,141.4333,Royal Exchange Hotel
163,Sitka,US,21.09,scattered clouds,57.0531,-135.33,Westmark Sitka
164,Saint-Philippe,RE,77.22,broken clouds,-21.3585,55.7679,"Chambres d'hôte ""La Trinité"""
165,Luis Correia,BR,84.2,scattered clouds,-2.8792,-41.6669,Hotel Amarração
166,Hasaki,JP,41.4,overcast clouds,35.7333,140.8333,Hotel Sunrise Choshi
167,Eichstatt,DE,34.84,overcast clouds,48.8833,11.1833,Hotel Adler
168,Kalemie,CD,67.84,overcast clouds,-5.9475,29.1947,Mahobilali
169,Port Elizabeth,ZA,66.09,scattered clouds,-33.918,25.5701,39 On Nile Guest House
170,Chuy,UY,71.11,overcast clouds,-33.6971,-53.4616,Nuevo Hotel Plaza
171,Half Moon Bay,US,49.87,overcast clouds,37.4636,-122.4286,"The Ritz-Carlton, Half Moon Bay"
173,Cap Malheureux,MU,76.46,overcast clouds,-19.9842,57.6142,Pereybere Hotel & Spa
174,Saint-Denis,FR,48.97,fog,48.9167,2.3333,ibis budget Paris Porte de Montmartre
175,Saint George,US,52.95,broken clouds,37.1041,-113.5841,Best Western Plus Abbey Inn
176,Dingle,PH,79.16,broken clouds,10.9995,122.6711,SEGAYA PROPERTY
177,Deming,US,62.49,overcast clouds,32.2687,-107.7586,Best Western Deming Southwest Inn
178,Kimbe,PG,83.68,moderate rain,-5.5502,150.1429,Kimbe Bay Hotel
179,Silopi,TR,36.9,clear sky,37.2497,42.4694,"Özenler Residence Otel, Şırnak Silopi"
180,Asau,RO,27.95,light snow,46.4333,26.4,Casa Mika Ciobanus
181,Senneterre,CA,25.02,overcast clouds,48.3835,-77.2328,Motel Senabi
182,Doha,QA,67.98,clear sky,25.2867,51.5333,Movenpick Hotel Doha
183,Monroe,US,43.95,overcast clouds,43.1501,-77.6831,"Staybridge Suites Rochester University, an IHG Hotel"
184,Taoudenni,ML,68.32,clear sky,22.6783,-3.9836,
185,Shingu,JP,40.91,clear sky,33.7333,135.9833,Shingu UI Hotel
186,Avarua,CK,82.45,moderate rain,-21.2078,-159.775,Paradise Inn
187,Hoddesdon,GB,44.49,overcast clouds,51.7615,-0.0114,Roydon Marina Village
188,Chisinau,MD,34.93,overcast clouds,47.0056,28.8575,Cosmos Hotel
189,Bac Lieu,VN,79.47,scattered clouds,9.285,105.7244,Khách sạn Sài Gòn Bạc Liêu
191,Manggar,ID,80.26,overcast clouds,-2.8833,108.2667,Guest Hotel
192,Butaritari,KI,82.47,broken clouds,3.0707,172.7902,Isles Sunset Lodge
193,Hambantota,LK,68.34,clear sky,6.1241,81.1185,Bungalow 63
194,Pacifica,US,49.68,broken clouds,37.6138,-122.4869,"Pacifica Lighthouse, Trademark Collection by Wyndham"
195,Vilcun,CL,59.74,clear sky,-38.65,-72.2333,"Rayen-Co, Rural Tourism"
196,Omboue,GA,77.36,moderate rain,-1.5746,9.2618,Hotel Olako
197,Shetpe,KZ,21.61,scattered clouds,44.1667,52.1167,Rtsm Shetpe Analog
198,Manali,IN,73.08,broken clouds,13.1667,80.2667,Sarathy Lodge
199,Vila Franca Do Campo,PT,66.2,overcast clouds,37.7167,-25.4333,Pestana Bahia Praia
200,Broome,US,46.56,fog,42.2506,-75.833,Chenango Valley State Park
201,Armidale,AU,76.8,clear sky,-30.5167,151.65,Abbotsleigh Motor Inn
202,Concordia,AR,83.79,clear sky,-31.393,-58.0209,Palmar Hotel Casino
203,Datong,CN,4.5,clear sky,40.0936,113.2914,Holiday Inn Datong City Centre
204,Korla,CN,21.76,scattered clouds,41.7597,86.1469,Gulisitan Hotel
205,Diyarb Najm,EG,50.58,clear sky,30.7542,31.4393,COUNCEL YEHIA FAHIM HOUSE
206,Imbituba,BR,73.29,few clouds,-28.24,-48.6703,Praia Hotel Imbituba
207,Ostrovnoy,RU,17.8,light snow,68.0531,39.5131,
208,Cockburn Town,TC,76.96,scattered clouds,21.4612,-71.1419,Osprey Beach Hotel
210,Kouvaras,GR,52.65,few clouds,37.8333,23.9667,Pantheon Hotel Athens Airport
211,Lethem,GY,80.92,overcast clouds,3.3803,-59.7968,Savannah Inn
212,Saint-Pierre,RE,77.29,scattered clouds,-21.3393,55.4781,Lindsey Hôtel
213,Vila Velha,BR,73.94,clear sky,-20.3297,-40.2925,Quality Suites Vila Velha
214,Mansa,IN,57.6,light rain,29.9833,75.3833,STARiHOTEL Mansa
215,Pestretsy,RU,21.34,clear sky,55.7531,49.6545,Hostel-Sport
216,Iki-Burul,RU,35.94,overcast clouds,45.8208,44.6472,
217,Babushkin,RU,9.95,clear sky,51.7122,105.8647,Отдых на Байкале!(жилье)
218,Namatanai,PG,84.52,moderate rain,-3.6667,152.4333,Seagulls Inn Namatani
219,Donegal,IE,46.51,overcast clouds,54.65,-8.1167,The Central Hotel Donegal
221,Necochea,AR,60.04,clear sky,-38.5473,-58.7368,dyd -mar Hotel
222,Illela,NG,68.79,overcast clouds,13.7292,5.2975,
223,Ankang,CN,31.91,overcast clouds,32.68,109.0172,安琪酒店
225,Cabatuan,PH,78.73,broken clouds,10.8794,122.486,MVC Transient Room
226,Bundaberg,AU,84.49,broken clouds,-24.85,152.35,Takalvan Motel
227,Champerico,GT,81.36,few clouds,14.3,-91.9167,"Hotel y restaurante ""El Diamante"""
228,Cabo San Lucas,MX,74.61,clear sky,22.8909,-109.9124,Hotel Tesoro Los Cabos
229,Ballina,AU,82.58,broken clouds,-28.8667,153.5667,Ramada Hotel & Suites by Wyndham Ballina Byron
230,Port Lincoln,AU,64.6,scattered clouds,-34.7333,135.8667,Port Lincoln Hotel
231,Shakiso,ET,57.24,few clouds,5.75,38.9167,Bealu Girma Hottel
232,Cordele,US,64.92,clear sky,31.9635,-83.7824,Ramada by Wyndham Cordele
233,Kavieng,PG,82.94,light rain,-2.5744,150.7967,Nusa Island Retreat
234,Jiuquan,CN,6.84,overcast clouds,39.7432,98.5174,Jiuquan Hotel
235,Ketchikan,US,17.58,clear sky,55.3422,-131.6461,Snow's Cove Lodge
236,Ukiah,US,44.64,overcast clouds,39.1502,-123.2078,Hampton Inn Ukiah
237,Pisco,PE,69.85,overcast clouds,-13.7,-76.2167,Hotel San Isidro Oficial
238,Milyutinskaya,RU,31.8,snow,48.6279,41.6679,
239,Marsh Harbour,BS,72.72,clear sky,26.5412,-77.0636,Abaco Beach Resort
240,Caravelas,BR,71.8,overcast clouds,-17.7125,-39.2481,Pousada dos Navegantes
241,Robertsport,LR,80.83,few clouds,6.7533,-11.3686,Kwepunha Retreat
242,Hima,UG,65.95,overcast clouds,0.2958,30.1804,Hima Cement Limited Guest House
243,Dubti,ET,72.1,clear sky,11.7361,41.0853,degu Shiferaw
244,Riwaka,NZ,71.6,clear sky,-41.0833,173.0,Motueka Top 10 Holiday Park
245,Gushikawa,JP,58.23,overcast clouds,26.3544,127.8686,Kirari Guest House
246,Tutoia,BR,84.18,overcast clouds,-2.7619,-42.2744,Pousada Guará's
247,Joshimath,IN,33.67,few clouds,30.5667,79.5667,Shivalik Camps & Resort
248,Moron,AR,75.02,clear sky,-34.6534,-58.6198,Hotel Morón
249,Maumere,ID,84.15,light rain,-8.6199,122.2111,Sylvia Hotel
250,Concepcion,CL,67.8,clear sky,-36.827,-73.0498,Hotel El Araucano
251,Te Anau,NZ,59.7,overcast clouds,-45.4167,167.7167,Kingsgate Hotel Te Anau
252,Ponta Do Sol,PT,67.71,overcast clouds,32.6667,-17.1,Hotel do Campo
253,Carnarvon,AU,78.87,overcast clouds,-24.8667,113.6333,Hospitality Carnarvon
254,Zuwarah,LY,59.67,broken clouds,32.9312,12.082,يوسف
255,Tonantins,BR,76.98,overcast clouds,-2.8731,-67.8022,Hotel Rei Davi
256,Changli,CN,14.32,clear sky,39.7042,119.1506,7Days Inn Qinhuangdao Changli Jieyang Street
259,Nikolskoye,RU,8.8,overcast clouds,59.7035,30.7861,Tourist House - Sablino
260,Namibe,AO,67.86,overcast clouds,-15.1961,12.1522,Hotel Chik Chik Namibe
261,Yelatma,RU,7.57,overcast clouds,54.9675,41.7508,
262,Arequipa,PE,60.87,broken clouds,-16.3989,-71.535,Casa de Avila Hotel
263,Umm Lajj,SA,67.05,clear sky,25.0213,37.2685,Moon light Furnished Units
264,Flinders,AU,79.81,overcast clouds,-34.5833,150.8552,Shellharbour Resort & Conference Centre
265,Ilo,PE,69.69,broken clouds,-17.6394,-71.3375,Torreblanca Hotel
266,Manavgat,TR,50.41,overcast clouds,36.7867,31.4431,River Boutique Hotel
267,Samarai,PG,84.42,overcast clouds,-10.6167,150.6667,Nuli Sapi
268,Svetlogorsk,BY,17.98,overcast clouds,52.6333,29.7333,Hotel Svetlogorsk JBIK
269,Tasiilaq,GL,26.76,clear sky,65.6145,-37.6368,The Red House
270,Alice Springs,AU,89.15,clear sky,-23.7,133.8833,Desert Palms Alice Springs
271,Nuqui,CO,77.59,light rain,5.7125,-77.2708,Hotel Nuquimar
272,Faya,SA,55.51,few clouds,18.3851,42.4509,املاك خالد الشعشوع
273,Lieksa,FI,7.61,overcast clouds,63.3167,30.0167,Kaatrahovi
274,Labuhan,ID,81.9,overcast clouds,-6.8844,112.2051,PT PPI Lamongan Tambak C
275,Coquimbo,CL,60.53,few clouds,-29.9533,-71.3436,Punto de encuentro
277,Naron,ES,56.59,overcast clouds,43.5167,-8.1528,Marcial
278,Nanortalik,GL,33.39,broken clouds,60.1432,-45.2371,Hotel Kap Farvel
279,Obregon,NI,80.69,scattered clouds,11.9566,-85.9636,Hostal Casa Aryen
280,La Asuncion,VE,78.53,few clouds,11.0333,-63.8628,Colinas de Matasiete
281,Faanui,PF,81.46,scattered clouds,-16.4833,-151.75,Bora-Bora Pearl Beach Resort & Spa
282,Najran,SA,63.25,clear sky,17.4924,44.1277,محمد هادي ال فطيح
283,Saint-Louis,SN,78.48,overcast clouds,16.3333,-15.0,
284,Maceo,CO,68.67,overcast clouds,6.552,-74.7874,Finca crisal
285,Matamoros,MX,74.1,clear sky,25.5333,-103.25,Quinta Belem
287,Ponta Delgada,PT,66.51,scattered clouds,37.7333,-25.6667,Vila Nova Hotel
288,Nouadhibou,MR,67.98,clear sky,20.931,-17.0347,El Medina
289,Rio Grande,BR,72.39,scattered clouds,-32.035,-52.0986,Hotel Atlântico Rio Grande
290,Sterling,US,65.8,moderate rain,39.0062,-77.4286,Hampton Inn & Suites Washington-Dulles International Airport
291,Nanae,JP,23.23,light snow,41.8833,140.6833,とみや旅館
292,Adrar,MR,64.42,clear sky,20.5022,-10.0711,
293,Sfantu Gheorghe,RO,44.56,overcast clouds,45.8667,25.7833,Hotel Park
294,Naze,JP,49.12,overcast clouds,28.3667,129.4833,Shishime Hotel
295,Carutapera,BR,76.21,overcast clouds,-1.195,-46.02,Lidera
296,Trairi,BR,80.26,overcast clouds,-3.2778,-39.2689,janelas do mar
297,Palmares Do Sul,BR,70.92,clear sky,-30.2578,-50.5097,Restaurante e Pensão Lopes
298,Prince Rupert,CA,17.29,clear sky,54.3161,-130.3201,Crest Hotel
299,Laguna,US,49.17,overcast clouds,38.421,-121.4238,"Holiday Inn Express & Suites Elk Grove Central - Hwy 99, an IHG Hotel"
300,Bathsheba,BB,77.61,few clouds,13.2167,-59.5167,Atlantis Hotel
301,Ulladulla,AU,69.76,overcast clouds,-35.35,150.4667,Sandpiper Motel
302,Hofn,IS,33.62,light rain,64.2539,-15.2082,Hótel Höfn
303,Zetel,DE,18.93,clear sky,53.4022,7.9645,Friesische Wehde
304,Lakes Entrance,AU,64.17,overcast clouds,-37.8811,147.981,The Esplanade Resort & Spa
305,Tual,ID,84.2,overcast clouds,-5.6667,132.75,Grand Vilia Hotel
306,Rochegda,RU,9.27,light snow,62.8,43.25,
308,Nanuque,BR,70.0,broken clouds,-17.8392,-40.3539,Hotel e Churrascaria Boi na Brasa
309,Bethel,US,44.04,mist,41.3712,-73.414,Courtyard by Marriott Danbury
310,Zaysan,KZ,15.37,overcast clouds,47.4667,84.8667,Ерлан үй
311,Los Pozos,VE,79.05,few clouds,8.4518,-62.7268,
312,Boa Vista,BR,82.38,clear sky,2.8197,-60.6733,Aipana Plaza Hotel
313,Buin,CL,80.74,overcast clouds,-33.7333,-70.75,Paihuen
314,Roald,NO,35.91,light rain,62.5833,6.1333,Flem Cabins
315,Sistranda,NO,33.91,light snow,63.7256,8.834,Hotell Frøya
316,Mwene-Ditu,CD,65.34,overcast clouds,-7.0,23.45,Hôtel Kamas
317,Pochutla,MX,77.85,broken clouds,15.7432,-96.4661,Hotel Posada San Jose
318,Kloulklubed,PW,84.7,overcast clouds,7.0419,134.2556,Storyboard Beach Resort
319,Charters Towers,AU,84.09,overcast clouds,-20.1,146.2667,Cattleman's Rest Motor Inn
320,Kaeo,NZ,80.33,broken clouds,-35.1,173.7833,Bushido Lodge
321,Bilma,NE,63.95,overcast clouds,18.6853,12.9164,Expeditions Ténére voyages
322,Poum,NC,81.88,overcast clouds,-20.2333,164.0167,Gîte kajeon
323,Kuantan,MY,78.91,few clouds,3.8077,103.326,Hotel Sentral Kuantan
324,Oshnaviyeh,IR,12.45,clear sky,37.0397,45.0983,Aram Qurbani
325,Progreso,MX,75.31,clear sky,21.2833,-89.6667,Playa Linda Hotel
327,Banjar,ID,85.91,overcast clouds,-8.19,114.9675,The Hamsa Resort
328,Pangnirtung,CA,12.24,clear sky,66.1451,-65.7125,Kilabuk Lodge
329,Erzin,TR,46.92,clear sky,36.9559,36.2,Artemis Otel
330,Lasa,IT,38.28,overcast clouds,46.6166,10.7002,Pension Feldgärtenhof
331,Chornukhy,UA,22.73,overcast clouds,50.2673,32.942,
332,Lamesa,US,61.86,overcast clouds,32.7376,-101.951,Shiloh Inn Lamesa
333,Eureka,US,42.58,overcast clouds,40.8021,-124.1637,Eureka Inn Trademark By Wyndham
334,Port Augusta,AU,81.72,clear sky,-32.5,137.7667,Majestic Oasis Apartments
335,Auki,SB,85.06,overcast clouds,-8.7676,160.7034,Auki Motel
336,Erenhot,CN,3.11,clear sky,43.6475,111.9767,Erenhot Rurouni Youth Hostel
337,Jilib,SO,74.39,broken clouds,0.4883,42.7854,
338,Yulara,AU,89.44,overcast clouds,-25.2406,130.9889,Desert Gardens Hotel - Ayers Rock Resort
339,College,US,14.2,snow,64.8569,-147.8028,Pike's Waterfront Lodge
340,Grass Valley,US,40.53,mist,39.2191,-121.0611,Holbrooke Hotel
341,Ewa Beach,US,80.55,few clouds,21.3156,-158.0072,Uncle Junior Robert
342,Lebu,CL,58.08,clear sky,-37.6167,-73.65,Hostal Las Lilas
343,Raudeberg,NO,34.2,light snow,61.9875,5.1352,Nordre Silda.
344,Ahipara,NZ,75.29,scattered clouds,-35.1667,173.1667,Ahipara Holiday Park
345,Lavrentiya,RU,12.47,overcast clouds,65.5833,-171.0,
346,Kalanchak,UA,36.66,overcast clouds,46.2562,33.2907,Колос
347,Nazarovo,RU,2.44,overcast clouds,56.0064,90.3914,Zarya
349,Teliu,RO,44.29,overcast clouds,45.6979,25.858,Cazare Dobarlica
350,Amboasary,MG,75.04,broken clouds,-25.0333,46.3833,DISCOVERY AMBOASARY
351,Mehamn,NO,28.35,light snow,71.0357,27.8492,Mehamn Arctic Hotel AS
352,Los Llanos De Aridane,ES,59.13,clear sky,28.6585,-17.9182,Valle Aridane
353,Grindavik,IS,34.27,snow,63.8424,-22.4338,Northern Light Inn & Max's Restaurant
354,Elko,US,35.62,overcast clouds,41.0002,-115.5012,
356,Salalah,OM,69.89,few clouds,17.0151,54.0924,"HAMDAN PLAZA HOTEL SALALAH, an HTG Hotel"
357,Elliot Lake,CA,30.29,overcast clouds,46.3834,-82.6331,Huron Lodge
358,Sorland,NO,35.2,light rain,67.667,12.6934,Sjybrygga fiskecamp
359,Gigmoto,PH,79.39,overcast clouds,13.7796,124.39,Cj's Travellers Inn
360,Kandava,LV,28.6,overcast clouds,57.0409,22.7747,Tourism and Relaxation Centre Plosti
361,Quang Ngai,VN,72.41,overcast clouds,15.1167,108.8,Central Hotel
362,Buala,SB,84.58,light rain,-8.145,159.5921,Maringe Lagoon Lodge
363,Longyearbyen,SJ,22.84,few clouds,78.2186,15.6401,"Radisson Blu Polar Hotel, Spitsbergen"
364,Springbok,ZA,53.92,overcast clouds,-29.6643,17.8865,Undulata Country Lodge
365,Wamba,NG,72.72,scattered clouds,8.9333,8.6,Roma Zee Guest House Annex
366,Channel-Port Aux Basques,CA,31.15,scattered clouds,47.5702,-59.1367,St. Christopher's Hotel
367,Manicore,BR,75.63,overcast clouds,-5.8092,-61.3003,Hotel Durval
369,Lana,IT,47.43,overcast clouds,46.6124,11.1559,Schlosshof Resort Südtirol - Camping Meran & Hotel Lana
370,San Policarpo,PH,80.96,scattered clouds,12.1791,125.5072,Agapita M. Nicart
371,Riyadh,SA,53.74,overcast clouds,24.6877,46.7219,"InterContinental Riyadh, an IHG Hotel"
372,Lagoa,PT,62.62,overcast clouds,39.05,-27.9833,Casa Das Faias
373,Morondava,MG,77.09,broken clouds,-20.2833,44.2833,La Case Bambou
374,Senanga,ZM,67.1,light rain,-16.1167,23.2667,Zango lodge
375,Nokaneng,BW,72.95,overcast clouds,-19.6667,22.2667,
376,Saint-Joseph,RE,76.21,scattered clouds,-21.3667,55.6167,"""Plantation Bed and Breakfast"
377,Balykshi,KZ,19.4,clear sky,47.0667,51.8667,Гостиница Golden Rose
378,Wilmington,US,62.98,clear sky,34.2257,-77.9447,"Hotel Ballast Wilmington, Tapestry Collection by Hilton"
379,Sidrolandia,BR,81.39,clear sky,-20.9319,-54.9614,Agropet São Francisco
380,Batsfjord,NO,25.88,light snow,70.6345,29.7185,Adventure Apartements
381,Katsuura,JP,42.91,broken clouds,35.1333,140.3,Katsuura Hotel Mikazuki
382,Rypefjord,NO,18.07,broken clouds,70.6333,23.6667,Skytterhuset
383,Grand Gaube,MU,76.37,overcast clouds,-20.0064,57.6608,Veranda Paul et Virginie Hotel & Spa
384,Victoria,HK,62.33,overcast clouds,22.2855,114.1577,Mini Hotel Central
385,Porto Santo,PT,66.58,scattered clouds,33.072,-16.3415,Hotel Porto Santo & Spa
386,Rimouski,CA,20.88,scattered clouds,48.4488,-68.524,Hôtel Rimouski
387,Ixtapa,MX,74.43,clear sky,20.7,-105.2,Hotel Plaza Providencia
388,Moindou,NC,89.55,overcast clouds,-21.6924,165.677,Equi-lodge de Moindou
389,Velsk,RU,6.55,overcast clouds,61.0701,42.0983,Zhemchuzhina Severa
390,Kahului,US,78.82,scattered clouds,20.8947,-156.47,Maui Seaside Hotel
393,Mount Gambier,AU,60.71,overcast clouds,-37.8333,140.7667,The Commodore
394,Nelson Bay,AU,86.29,broken clouds,-32.7167,152.15,Mantra Nelson Bay
395,Krasnoarmeysk,RU,22.3,light snow,51.0239,45.6969,"Hotel ""Your home-Balzer"""
396,Impfondo,CG,72.39,moderate rain,1.6381,18.0667,Auberge La Place de Jules
397,Colesberg,ZA,62.78,clear sky,-30.72,25.0972,Bhelekazi Guesthouse
398,Saint-Georges,GD,78.48,scattered clouds,12.0564,-61.7485,Radisson Grenada Beach Resort
399,Sao Geraldo Do Araguaia,BR,73.2,light rain,-6.4006,-48.555,Hotel Por do Sol
400,Berbera,SO,74.07,few clouds,10.4396,45.0143,IBCO REAL ESTATE PROPERTY
401,Muriwai Beach,NZ,80.42,scattered clouds,-36.8167,174.45,Coast Retreat Muriwai - Golf and Surf Holiday
402,Wladyslawowo,PL,24.94,scattered clouds,54.7909,18.4009,Gwiazda Morza Resort SPA&SPORT
403,Umm Kaddadah,SD,59.77,few clouds,13.6017,26.6876,
404,Apatity,RU,3.11,overcast clouds,67.5641,33.4031,Guest House
405,Balkanabat,TM,34.43,scattered clouds,39.5108,54.3671,Nebitchi Hotel
406,Kasongo,CD,65.66,overcast clouds,-4.45,26.6667,Guest Hôtel
407,Bairiki,KI,87.8,few clouds,1.3292,172.9752,Tarawa Boutique Hotel
409,Fairbanks,US,14.22,snow,64.8378,-147.7164,Westmark Fairbanks Hotel & Conference Center
410,Huaihua,CN,26.76,snow,27.5494,109.9592,怀化天庆大酒店
412,Tibati,CM,70.09,broken clouds,6.4667,12.6333,Tibati Hotel
413,Anloga,GH,81.32,clear sky,5.7947,0.8973,Pin Drop Hotel
414,Hervey Bay,AU,84.31,overcast clouds,-25.2986,152.8535,Shelly Bay Resort
415,Kamenka,RU,20.75,overcast clouds,51.3223,42.7678,
416,Salento,CO,65.53,overcast clouds,4.6375,-75.5703,Hotel La Floresta Salento
417,Kruisfontein,ZA,63.88,overcast clouds,-34.0033,24.7314,Oyster Bay House Rental
419,Guiratinga,BR,74.97,overcast clouds,-16.3494,-53.7583,Hotel Angra do Cerrado - Guiratinga MT
420,Kihei,US,78.82,scattered clouds,20.785,-156.4656,Maui Sunset
421,Along,IN,52.47,clear sky,28.1667,94.7667,Hotel West
422,Kieta,PG,81.09,overcast clouds,-6.2167,155.6333,Uruna Bay Retreat
423,Ngunguru,NZ,80.17,broken clouds,-35.6167,174.5,Pacific Rendezvous Motel Resort
424,Breytovo,RU,7.52,light snow,58.2993,37.8617,"The recreation center ""Sitinsky Beach"""
425,Vredendal,ZA,63.82,scattered clouds,-31.6683,18.5012,Tharrakamma Guest House
426,Gunnedah,AU,85.62,broken clouds,-30.9833,150.25,Gunnedah Motor Inn
427,Miri,MY,84.34,scattered clouds,4.4148,114.0089,"Mega Hotel, Miri"
428,Acapulco,MX,80.42,scattered clouds,16.8634,-99.8901,HS Hotsson Smart Acapulco
429,Klaksvik,FO,36.52,overcast clouds,62.2266,-6.589,Airbnb rooms
430,Georgiyevka,KZ,30.24,fog,43.0369,74.7114,Gostinitsa Imperiya
431,Ouadda,CF,74.44,overcast clouds,8.0777,22.4007,
432,Shaowu,CN,40.51,overcast clouds,27.3409,117.4831,Yijie Express Hotel
433,Hurghada,EG,55.44,clear sky,27.2574,33.8129,Sea Star Beau Rivage Hotel
434,Peniche,PT,59.11,overcast clouds,39.3558,-9.3811,Hotel Star inn Peniche
435,Gorontalo,ID,86.76,overcast clouds,0.5412,123.0595,Maqna Hotel by Prasanthi
436,Brae,GB,37.31,few clouds,60.3964,-1.353,Busta House Hotel
437,Santa Fe Do Sul,BR,70.74,clear sky,-20.2111,-50.9258,Litani Park Hotel - Hotel Santa Fé do Sul
438,Kapoeta,SS,78.71,broken clouds,4.7717,33.5903,Eastgate Hotel
439,Venice,US,67.14,clear sky,27.0998,-82.4543,A Beach Retreat On Casey Key
440,Trenggalek,ID,83.5,overcast clouds,-8.05,111.7167,OYO 2966 Hotel Atriaz
441,Wysokie Mazowieckie,PL,15.01,clear sky,52.9166,22.5171,POKOJE Z SERCEM
442,Berlevag,NO,28.13,light snow,70.8578,29.0864,Kvitbrakka
443,Westport,US,48.34,mist,41.1415,-73.3579,Norwalk Inn
444,Oga,IT,30.88,overcast clouds,46.4631,10.347,QC Terme Bagni di Bormio Bagni Nuovi
445,Akdagmadeni,TR,25.16,clear sky,39.6603,35.8836,Hanedan Otel
446,Torbay,CA,27.57,broken clouds,47.6666,-52.7314,Gallows Cove
447,Ko Samui,TH,80.51,few clouds,9.5357,99.9357,The Passage
448,Skelleftea,SE,16.16,light snow,64.7507,20.9528,Quality Hotel Skellefteå Stadshotell
449,Mpika,ZM,63.34,overcast clouds,-11.8343,31.4529,Melodies Lodge
450,Ravar,IR,42.75,clear sky,31.2656,56.8055,کافی نت و کامپیوترپرشین سیستم
451,Kununurra,AU,84.18,overcast clouds,-15.7667,128.7333,Hotel Kununurra
452,Ibra,OM,65.53,overcast clouds,22.6906,58.5334,مزرعة راحة النفوس المنزفة
453,Maceio,BR,81.84,moderate rain,-9.6658,-35.7353,Poutur Pousada
454,Contai,IN,69.01,clear sky,21.7786,87.7536,PATHFINDER
455,Gidole,ET,57.25,scattered clouds,5.65,37.3667,Shallom mekaneyesus church
456,Port Blair,IN,79.23,few clouds,11.6667,92.75,"Welcomhotel By ITC Hotels, Bay Island, Port Blair"
457,Kunnamangalam,IN,72.23,broken clouds,11.3046,75.8777,HOTEL MONAD
458,Bud,US,53.11,clear sky,39.447,-86.1758,Ted McQuinn Trust
459,Palmer,US,36.46,mist,42.1584,-72.3287,Wedgewood Motel
460,Tarazona,ES,43.54,overcast clouds,41.9,-1.7333,La Merced de la Concordia
461,Saldanha,ZA,62.65,few clouds,-33.0117,17.9442,Blue Bay Lodge
462,Virginia Beach,US,66.25,clear sky,36.8529,-75.978,Hilton Virginia Beach Oceanfront
465,Kenai,US,18.09,clear sky,60.5544,-151.2583,Aspen Extended Stay Suites
466,Chuzhou,CN,25.75,few clouds,32.3219,118.2978,GreenTree Inn Chuzhou Langya Mountain Scenic Area Xijian Road Business Hotel
467,Port Hawkesbury,CA,32.59,light snow,45.6169,-61.3485,MacKenzie House Tourist Home B&B
468,Baoying,CN,24.94,clear sky,33.2292,119.3092,GreenTree Alliance Yangzhou Baoying Town Huaijiang Street East Taishan Road Hotel
469,Puerto Gaitan,CO,84.13,scattered clouds,4.3133,-72.0816,Brisas del Yucao
470,Ucluelet,CA,32.09,light snow,48.9329,-125.5528,Black Rock Oceanfront Resort
471,Rawson,AR,64.92,clear sky,-43.3002,-65.1023,Hosteria Sampedro
472,Boca Do Acre,BR,78.3,overcast clouds,-8.7522,-67.3978,Hotel Sao Pedro
473,Almeirim,BR,75.76,overcast clouds,-1.5233,-52.5817,Ricácio Hotel
474,Krasnovka,RU,27.5,snow,48.8177,40.0923,
475,Margate,GB,42.96,overcast clouds,51.3813,1.3862,Premier Inn Margate hotel
476,Bekwai,GH,72.25,few clouds,6.4534,-1.5774,Annex Plaza Hotel
477,Saint-Paul,RE,77.74,scattered clouds,-21.0096,55.2707,Boucan Canot
478,Kalmar,SE,26.96,scattered clouds,56.6616,16.3616,First Hotel Witt
479,Yaan,NG,76.5,broken clouds,7.3833,8.5667,
480,Vigrestad,NO,21.81,few clouds,58.5667,5.7,Brusand Camping
481,Lebanon,US,67.96,scattered clouds,36.2081,-86.2911,Hampton Inn & Suites Lebanon
482,Boende,CD,72.14,overcast clouds,-0.2167,20.8667,
483,Beyneu,KZ,16.11,clear sky,45.3167,55.2,NUR
484,Olinda,BR,74.93,moderate rain,-8.0089,-34.8553,Hotel Albergue de Olinda
485,Mount Isa,AU,87.57,overcast clouds,-20.7333,139.5,ibis Styles Mt Isa Verona
487,Vryburg,ZA,67.41,clear sky,-26.9566,24.7284,The Times Premier Lodge
488,Balocawehay,PH,78.15,overcast clouds,10.7221,124.9678,Tia Inday Haven Farm
489,Florida,US,64.02,clear sky,28.7505,-82.5001,Sportsmens Cove
490,Hobyo,SO,77.74,scattered clouds,5.3505,48.5268,Halane Hotel and Restaurent
491,Devonport,AU,70.0,few clouds,-41.1667,146.35,Gateway Hotel by Nightcap Plus
492,Santa Isabel Do Rio Negro,BR,75.79,overcast clouds,-0.4139,-65.0192,Hotel GSA
493,Kumluca,TR,49.68,few clouds,36.3703,30.2869,TurkuazKöy
494,Roanoke Rapids,US,64.35,scattered clouds,36.4615,-77.6542,Hampton Inn Roanoke Rapids
495,Nizhneivkino,RU,14.76,overcast clouds,58.194,49.5214,Guest house on Zelenaya 8
496,Tocache,PE,75.78,broken clouds,-8.1842,-76.5125,Hotel Ortiz
497,Malacky,SK,32.38,overcast clouds,48.436,17.0219,Hotel Spark
498,Guerrero Negro,MX,60.48,overcast clouds,27.9769,-114.0611,"Casa Laguna, Bed & Breakfast"
499,Biak,ID,84.63,overcast clouds,-0.9131,122.8766,Penginapan Kim
500,Riberalta,BO,80.65,overcast clouds,-10.9833,-66.1,Hotel Colonial
501,Portland,US,39.74,overcast clouds,45.5234,-122.6762,Embassy Suites by Hilton Portland Downtown
502,Preobrazheniye,RU,6.89,clear sky,42.9019,133.9064,Campsite Orlan
503,Corrientes,AR,80.02,clear sky,-27.4806,-58.8341,Gran Hotel Guaraní
504,Bhatkal,IN,73.49,clear sky,13.9667,74.5667,Nilawar Palace
505,Muli,MV,81.55,broken clouds,2.9167,73.5667,Medhufushi Island Resort
506,Altay,CN,12.88,scattered clouds,47.8667,88.1167,Jinqiao Hotel
507,Novo Aripuana,BR,74.7,overcast clouds,-5.1206,-60.3797,Hotel Ezequiel
508,Havelock,US,63.01,clear sky,34.8791,-76.9013,Sherwood Motel
509,Ouegoa,NC,85.33,broken clouds,-20.35,164.4333,
510,Ariquemes,BR,78.49,overcast clouds,-9.9133,-63.0408,Hotel Sol Nascente - Ariquemes - RO
511,Newport,GB,50.83,overcast clouds,51.5877,-2.9984,ibis budget Newport
512,Yuncheng,CN,26.26,clear sky,35.0231,110.9928,晋州快捷酒店
513,Kemise,ET,61.97,broken clouds,10.7167,39.8667,Hussen Endris
514,Wahpeton,US,12.92,overcast clouds,46.2652,-96.6059,Select Inn Breckenridge
515,Corn Island,NI,80.51,scattered clouds,12.1694,-83.0418,Big Fish Guest House
516,Nemuro,JP,23.43,overcast clouds,43.3236,145.575,Hotel Nemuro Kaiyoutei
517,Sobolevo,RU,17.06,overcast clouds,54.4299,31.8996,
518,Rock Sound,BS,73.35,clear sky,24.9,-76.2,Rock Sound Club
519,Mangan,IN,52.02,overcast clouds,27.5167,88.5333,Hotel Mout View
522,Suamico,US,33.49,overcast clouds,44.6319,-88.0393,"Country Inn & Suites by Radisson, Green Bay North, WI"
523,Barranca,PE,68.2,overcast clouds,-10.75,-77.7667,El Olivar Hospedaje
524,Rosarito,MX,56.35,overcast clouds,32.3333,-117.0333,Hotel Festival Plaza Rosarito
525,Kampong Thum,KH,76.19,scattered clouds,12.7111,104.8887,Sambor Village Hotel
526,Sisimiut,GL,21.94,clear sky,66.9395,-53.6735,Hotel Sisimiut
528,Ocala,US,63.34,clear sky,29.1872,-82.1401,Golden Palms Inn & Suites
529,Cetraro,IT,56.25,overcast clouds,39.5166,15.9416,Hotel Carruba RISTORANTE
530,Luena,AO,59.59,broken clouds,-11.7833,19.9167,Hotel Kandamba
531,Tiznit,MA,58.03,overcast clouds,29.5833,-9.5,
532,San Pedro Del Pinatar,ES,62.2,overcast clouds,37.8357,-0.791,Thalasia Costa de Murcia
533,Wolsztyn,PL,16.92,clear sky,52.1155,16.1171,Holiday Resort Jelonek
534,Sikasso,ML,73.35,overcast clouds,10.9167,-7.0,
535,Awbari,LY,51.49,scattered clouds,26.5921,12.7805,فندق أوباري
536,Artvin,TR,36.68,scattered clouds,41.1667,41.8333,Koru Butik Otel
537,Atar,MR,66.27,clear sky,20.5169,-13.0499,Oumou Elghoura
538,Ambulu,ID,83.25,overcast clouds,-8.345,113.6058,Hotel Ambulu Jember
539,Bubaque,GW,79.32,overcast clouds,11.2833,-15.8333,"Casa Dora, Bubaque"
540,Le Port,RE,77.61,broken clouds,-20.9373,55.2919,KORBEY D'OR OUEST
541,Zhongshu,CN,48.81,overcast clouds,24.5167,103.7667,Xintianlong Hotel
542,Samana,DO,74.64,few clouds,19.2056,-69.3369,The Bannister - Hotel & Yacht Club
543,Morros,BR,70.2,overcast clouds,-9.4467,-46.3003,
544,Nagorsk,RU,20.05,light snow,59.3172,50.8078,Uyutnyy Dom
545,Agadez,NE,59.7,overcast clouds,19.75,10.25,
546,Yaguajay,CU,72.81,few clouds,22.3272,-79.2378,Hostal La Terraza
547,Dharchula,IN,42.66,few clouds,29.85,80.5333,Mahara Hotel
548,Tabou,CI,79.18,few clouds,4.423,-7.3528,hotêl doufoulougou
550,Jablah,SY,44.89,clear sky,35.3614,35.9256,بستان صالح
551,Khirkiya,IN,59.67,clear sky,22.1674,76.8605,Sanjay Industries
552,Safaga,EG,55.35,clear sky,26.7292,33.9365,Lamar Resort Abu Soma
553,Ada,US,34.99,light snow,43.4166,-116.1262,
554,Sandwick,GB,37.22,few clouds,60.0,-1.25,Beach House Self-Catering Accomodation
555,Warangal,IN,65.08,clear sky,18.0,79.5833,Supreme Hotels
556,Metu,ET,60.8,overcast clouds,8.3,35.5833,Darfn hotel
557,Atyashevo,RU,5.4,clear sky,54.5644,46.0691,Motel Atyshevo
558,Halifax,CA,29.08,overcast clouds,44.6453,-63.5724,Hotel Halifax
559,Carballo,ES,55.0,broken clouds,43.213,-8.691,Pazo do Souto
560,Gillette,US,31.8,clear sky,44.2911,-105.5022,National 9 Inn - Gillette WY
562,Gladstone,AU,87.78,overcast clouds,-23.85,151.25,Highpoint International Hotel
563,Sumbe,AO,74.73,light rain,-11.2061,13.8437,Hotel Ritz Sumbe
564,Alyangula,AU,80.47,moderate rain,-13.8483,136.4192,Groote Eylandt Lodge
565,Qaqortoq,GL,45.1,overcast clouds,60.7167,-46.0333,Siniffik Inn
566,Maragogi,BR,79.14,moderate rain,-9.0122,-35.2225,Salinas do Maragogi All Inclusive Resort
567,Gold Coast,AU,85.15,overcast clouds,-28.0,153.4333,Mantra Towers of Chevron Surfers Paradise
568,Homer,US,33.04,overcast clouds,59.6425,-151.5483,Beluga Lake Lodge
569,Majene,ID,87.17,scattered clouds,-3.5403,118.9707,Kost Putri RABBANI
570,Mandera,KE,78.4,few clouds,3.9366,41.867,Mwalimu Guest mandera
571,Istmina,CO,73.26,broken clouds,5.1605,-76.684,Hotel La Gran Estación Istmina
573,Susanville,US,31.84,light snow,40.4163,-120.653,Comfort Inn & Suites
574,Koumac,NC,84.96,broken clouds,-20.5667,164.2833,Le Monitel
575,Bonthe,SL,78.69,few clouds,7.5264,-12.505,Bonthe Holiday Village
576,Lunino,RU,1.0,broken clouds,53.5918,45.2271,Мини гостиница у Славы
577,Gurlan,UZ,21.27,scattered clouds,41.8447,60.3919,ÒJIQ OVUL
579,Kota Tinggi,MY,82.44,overcast clouds,1.7381,103.8999,Canopy Tribe
580,Druzhba,UA,13.73,broken clouds,52.0428,33.9453,
581,Cangucu,BR,62.94,few clouds,-31.395,-52.6756,Compacto 2D Centro Canela
582,Sawtell,AU,82.72,scattered clouds,-30.3833,153.1,The Bungalow Sawtell
583,Hamilton,US,55.63,scattered clouds,39.1834,-84.5333,Six Acres Bed & Breakfast
584,Hualmay,PE,68.09,broken clouds,-11.0964,-77.6139,Hotel Villa Kitzia Huacho
586,Ubinskoye,RU,11.28,overcast clouds,55.3068,79.6802,Gostinitsa Siberia
587,Kasongo-Lunda,CD,69.22,broken clouds,-6.4667,16.8167,
588,Valdivia,CL,71.69,clear sky,-39.8142,-73.2459,Hostal Entre Rios
589,Wewak,PG,84.09,moderate rain,-3.5534,143.6268,In Wewak Boutique Hotel
590,Mayo,US,65.1,light rain,38.8876,-76.5119,Resorts Resource Group International
591,Filingue,NE,72.9,overcast clouds,14.3521,3.3168,
592,Waterloo,CA,39.83,overcast clouds,43.4668,-80.5164,Comfort Inn
593,Makakilo City,US,79.12,few clouds,21.3469,-158.0858,Marriott's Ko Olina Beach Club
596,Avera,US,69.67,clear sky,33.194,-82.5271,
598,Carndonagh,IE,39.83,light rain,55.25,-7.2667,Riversdale Country House
600,Alugan,PH,80.69,scattered clouds,12.2188,125.4808,JM Lodge
601,Tuensang,IN,53.02,scattered clouds,26.2833,94.8333,B.W.D Resthouse.
602,Mareeba,AU,88.52,overcast clouds,-17.0,145.4333,Trinity Plains Tourist Park
603,Botucatu,BR,61.95,clear sky,-22.8858,-48.445,Primar Plaza Hotel
604,Isangel,VU,86.11,scattered clouds,-19.55,169.2667,Tanna Lodge
605,Dourdan,FR,48.25,overcast clouds,48.5277,2.0111,"Belambra Clubs ""Le Domaine du Normont"""
607,Ransang,PH,83.21,overcast clouds,8.9603,117.5828,Black and Crystal Sand Campsite
609,Phek,IN,39.88,few clouds,25.6667,94.5,Prayer Centre
610,La Rioja,ES,38.05,overcast clouds,42.25,-2.5,Casa Concejos
611,La Romana,DO,75.56,few clouds,18.4273,-68.9728,Casa de Campo Resort and Villas
612,Cassilandia,BR,68.86,clear sky,-19.1133,-51.7342,Delirius Motel
613,Nichinan,JP,40.68,clear sky,31.6,131.3667,Guest House Aki
615,Brenham,US,70.79,overcast clouds,30.1669,-96.3977,Hampton Inn & Suites Brenham
616,Jales,BR,69.24,clear sky,-20.2689,-50.5458,Geraldelli Center Hotel
617,General Roca,AR,77.4,clear sky,-39.0333,-67.5833,Hotel y Casino del Río General Roca
618,Mao,ES,57.76,clear sky,39.8885,4.2658,ARTIEM Capri
619,Birjand,IR,25.27,clear sky,32.8663,59.2211,Birjand Tourist Hotel
620,Tekeli,KZ,25.77,overcast clouds,44.83,78.8239,Vuslat Tekeli
621,Ostrovskoye,RU,6.1,overcast clouds,57.8057,42.2433,Country house Sosnoviy Bor Ostrovtsy
622,Xuddur,SO,69.78,overcast clouds,4.1213,43.8894,Banjanay Hotel
623,Dzilam Gonzalez,MX,70.54,clear sky,21.2833,-88.9333,posadas
624,Perbaungan,ID,78.91,overcast clouds,3.5679,98.956,Bendang Lama
625,Kita,ML,71.73,overcast clouds,13.0349,-9.4895,Hôtel Chat Rouge
626,Tvoroyri,FO,36.79,overcast clouds,61.5556,-6.8111,Hilmarsstova a Hobbit Hole
627,Gualaquiza,EC,63.77,broken clouds,-3.4,-78.55,Hotel Merceditas
628,Tangkak,MY,80.47,overcast clouds,2.2673,102.5453,Lakeside Village Homestay 水乡民宿
629,Kavaratti,IN,81.21,overcast clouds,10.5669,72.642,Hotels in Lakshadweep Islands
630,Puerto Escondido,MX,79.63,clear sky,15.85,-97.0667,Aldea del Bazar Hotel and Spa
631,Moctezuma,MX,64.4,broken clouds,29.8,-109.6667,Hotel Lobohombo
632,Sakakah,SA,44.17,clear sky,29.9697,40.2064,Fakhamat Al Orjoana Apartment
634,Ranfurly,NZ,69.06,clear sky,-45.1333,170.1,Ranfurly Holiday Park Motels & Cabins
635,Lagos,NG,82.72,scattered clouds,6.5833,3.75,
636,San Miguel,SV,71.71,clear sky,13.4833,-88.1833,Hotel Tropico Inn San Miguel
638,Riachao Das Neves,BR,69.51,overcast clouds,-11.7461,-44.91,Casa Costa
639,Colares,PT,58.89,overcast clouds,38.7992,-9.4469,Arribas Sintra Hotel
641,Waddan,LY,52.86,broken clouds,29.1614,16.139,محل الشريف محمد العايب
642,Fort Wellington,GY,76.39,few clouds,6.4,-57.6,TE'AMO Entertainment Park
643,Requena,ES,51.13,overcast clouds,39.4883,-1.1004,Hotel Avenida
644,Constitucion,CL,60.87,clear sky,-35.3333,-72.4167,Hotel Boutique Las Azucenas
645,Praia Da Vitoria,PT,66.45,broken clouds,38.7333,-27.0667,Hotel Branco I
646,Bonavista,CA,28.11,snow,48.6499,-53.1147,Abbott's Bed & Breakfast
647,Rawlins,US,34.02,broken clouds,41.7911,-107.2387,"Holiday Inn Express Rawlins, an IHG Hotel"
648,Tarakan,ID,78.3,broken clouds,3.3,117.6333,RedDoorz Syariah near Taman Berlabuh Tarakan
649,Piotrkow Trybunalski,PL,18.18,clear sky,51.4055,19.7032,Best Western Hotel Trybunalski
650,Mitsamiouli,KM,81.59,few clouds,-11.3847,43.2844,Foyer ADM
651,Saraland,US,66.31,clear sky,30.8207,-88.0706,Microtel Inn & Suites by Wyndham Saraland/North Mobile
652,Quirinopolis,BR,68.74,clear sky,-18.4483,-50.4517,Rota Hotéis - Quirinópolis GO
653,Kontagora,NG,70.77,broken clouds,10.3999,5.4695,Queens Guest Inn
654,Bulolo,PG,75.99,overcast clouds,-7.2,146.65,Pine Lodge Bulolo
655,Roma,US,40.73,moderate rain,43.2128,-75.4557,Wingate By Wyndham Rome
656,Quatre Cocos,MU,76.08,overcast clouds,-20.2078,57.7625,Sunrise Attitude Hotel
657,Catamarca,AR,82.04,overcast clouds,-28.4696,-65.7852,Amerian Catamarca Park Hotel
658,Atherton,GB,39.29,moderate rain,53.5237,-2.4935,The Lion Inn
660,De Aar,ZA,66.72,clear sky,-30.6497,24.0123,Nyibiba Guesthouse
661,Aksu,CN,20.46,broken clouds,41.1231,80.2644,Pudong Holiday Hotel
662,Kaniama,CD,66.02,overcast clouds,-7.5667,24.1833,
663,Port Hardy,CA,26.6,light snow,50.6996,-127.4199,Airport Inn
664,Dwarka,IN,70.92,broken clouds,22.2394,68.9678,Hotel Narayan Avezika Comfort
665,Chifeng,CN,7.03,clear sky,42.2683,118.9636,Junyu Tiancheng Hotel
666,Kosa,RU,15.53,light snow,59.9445,54.9977,Gostinitsa V Kose
667,Tingo Maria,PE,70.9,light rain,-9.2895,-76.0088,Hospedaje Paraíso
